
[
  {
    "name": "Regent's Park Tennis Centre",
    "lat": 51.5303,
    "lng": -0.1554,
    "sports": ["Tennis", "Padel"],
    "address": "York Bridge, London NW1 4NU, UK"
  },
  {
    "name": "Hyde Park Tennis Courts",
    "lat": 51.507,
    "lng": -0.1657,
    "sports": ["Tennis"],
    "address": "South Carriage Dr, London W2 2UH, UK"
  },
  {
    "name": "Islington Tennis Centre",
    "lat": 51.559,
    "lng": -0.1065,
    "sports": ["Tennis", "Badminton"],
    "address": "Market Rd, London N7 9PL, UK"
  },
  {
    "name": "Finsbury Park Tennis Courts",
    "lat": 51.5663,
    "lng": -0.1061,
    "sports": ["Tennis"],
    "address": "Finsbury Park, London, UK"
  },
  {
    "name": "National Tennis Centre",
    "lat": 51.4886,
    "lng": -0.2195,
    "sports": ["Tennis", "Padel"],
    "address": "100 Priory Ln, London SW15 5JQ, UK"
  },
  {
    "name": "Stratford Pickleball",
    "lat": 51.545,
    "lng": -0.007,
    "sports": ["Pickleball"],
    "address": "30most, London E15 2RB, UK"
  },
  {
    "name": "The London Badminton Centre",
    "lat": 51.5975,
    "lng": -0.298,
    "sports": ["Badminton"],
    "address": "1-5 The Ridgeway, London NW7 1RP, UK"
  },
  {
    "name": "Table Tennis Fight Club",
    "lat": 51.5205,
    "lng": -0.0776,
    "sports": ["Table Tennis"],
    "address": "2-4 Rufus St, London N1 6PE, UK"
  }
]
